[
  {
    "area":{
      "acres":"49,057.36",
      "square_km":"198.5"
    },
    "coordinates":{
      "latitude":44.35,
      "longitude":-68.21
    },
    "date_established_readable":"February 26, 1919",
    "date_established_unix":-1604599200,
    "states":[
      "Maine"
    ],
    "title":"Acadia",
    "visitors":"3,303,393",
    "world_heritage_site":false
  },
  {
    "area":{
      "acres":"8,256.67",
      "square_km":"33.4"
    },
    "coordinates":{
      "latitude":-14.25,
      "longitude":-170.68
    },
    "date_established_readable":"October 31, 1988",
    "date_established_unix":594280800,
    "states":[
      "American Samoa"
    ],
    "title":"American Samoa",
    "visitors":"28,892",
    "world_heritage_site":false
  },
  {
    "area":{
      "acres":"76,678.98",
      "square_km":"310.3"
    },
    "coordinates":{
      "latitude":38.68,
      "longitude":-109.57
    },
    "date_established_readable":"November 12, 1971",
    "date_established_unix":58773600,
    "states":[
      "Utah"
    ],
    "title":"Arches",
    "visitors":"1,585,718",
    "world_heritage_site":false
  },
  {
    "area":{
      "acres":"242,755.94",
      "square_km":"982.4"
    },
    "coordinates":{
      "latitude":43.75,
      "longitude":-102.5
    },
    "date_established_readable":"November 10, 1978",
    "date_established_unix":279525600,
    "states":[
      "South Dakota"
    ],
    "title":"Badlands",
    "visitors":"996,263",
    "world_heritage_site":false
  },
  {
    "area":{
      "acres":"801,163.21",
      "square_km":"3,242.2"
    },
    "coordinates":{
      "latitude":29.25,
      "longitude":-103.25
    },
    "date_established_readable":"June 12, 1944",
    "date_established_unix":-806439600,
    "states":[
      "Texas"
    ],
    "title":"Big Bend",
    "visitors":"388,290",
    "world_heritage_site":false
  },
  {
    "area":{
      "acres":"172,971.11",
      "square_km":"700.0"
    },
    "coordinates":{
      "latitude":25.65,
      "longitude":-80.08
    },
    "date_established_readable":"June 28, 1980",
    "date_established_unix":331016400,
    "states":[
      "Florida"
    ],
    "title":"Biscayne",
    "visitors":"514,709",
    "world_heritage_site":false
  },
  {
    "area":{
      "acres":"30,749.75",
      "square_km":"124.4"
    },
    "coordinates":{
      "latitude":38.57,
      "longitude":-107.72
    },
    "date_established_readable":"October 21, 1999",
    "date_established_unix":940482000,
    "states":[
      "Colorado"
    ],
    "title":"Black Canyon of the Gunnison",
    "visitors":"238,018",
    "world_heritage_site":false
  },
  {
    "area":{
      "acres":"35,835.08",
      "square_km":"145.0"
    },
    "coordinates":{
      "latitude":37.57,
      "longitude":-112.18
    },
    "date_established_readable":"February 25, 1928",
    "date_established_unix":-1320688800,
    "states":[
      "Utah"
    ],
    "title":"Bryce Canyon",
    "visitors":"2,365,110",
    "world_heritage_site":false
  },
  {
    "area":{
      "acres":"337,597.83",
      "square_km":"1,366.2"
    },
    "coordinates":{
      "latitude":38.2,
      "longitude":-109.93
    },
    "date_established_readable":"September 12, 1964",
    "date_established_unix":-167338800,
    "states":[
      "Utah"
    ],
    "title":"Canyonlands",
    "visitors":"776,218",
    "world_heritage_site":false
  },
  {
    "area":{
      "acres":"241,904.26",
      "square_km":"979.0"
    },
    "coordinates":{
      "latitude":38.2,
      "longitude":-111.17
    },
    "date_established_readable":"December 18, 1971",
    "date_established_unix":61884000,
    "states":[
      "Utah"
    ],
    "title":"Capitol Reef",
    "visitors":"1,064,904",
    "world_heritage_site":false
  },
  {
    "area":{
      "acres":"46,766.45",
      "square_km":"189.3"
    },
    "coordinates":{
      "latitude":32.17,
      "longitude":-104.44
    },
    "date_established_readable":"May 14, 1930",
    "date_established_unix":-1250794800,
    "states":[
      "New Mexico"
    ],
    "title":"Carlsbad Caverns",
    "visitors":"466,773",
    "world_heritage_site":true
  },
  {
    "area":{
      "acres":"249,561.00",
      "square_km":"1,009.9"
    },
    "coordinates":{
      "latitude":34.01,
      "longitude":-119.42
    },
    "date_established_readable":"March 5, 1980",
    "date_established_unix":321084000,
    "states":[
      "California"
    ],
    "title":"Channel Islands",
    "visitors":"364,807",
    "world_heritage_site":false
  },
  {
    "area":{
      "acres":"26,275.82",
      "square_km":"106.3"
    },
    "coordinates":{
      "latitude":33.78,
      "longitude":-80.78
    },
    "date_established_readable":"November 10, 2003",
    "date_established_unix":1068444000,
    "states":[
      "South Carolina"
    ],
    "title":"Congaree",
    "visitors":"143,843",
    "world_heritage_site":false
  },
  {
    "area":{
      "acres":"183,224.05",
      "square_km":"741.5"
    },
    "coordinates":{
      "latitude":42.94,
      "longitude":-122.1
    },
    "date_established_readable":"May 22, 1902",
    "date_established_unix":-2133716400,
    "states":[
      "Oregon"
    ],
    "title":"Crater Lake",
    "visitors":"756,344",
    "world_heritage_site":false
  },
  {
    "area":{
      "acres":"32,572.35",
      "square_km":"131.8"
    },
    "coordinates":{
      "latitude":41.24,
      "longitude":-81.55
    },
    "date_established_readable":"October 11, 2000",
    "date_established_unix":971240400,
    "states":[
      "Ohio"
    ],
    "title":"Cuyahoga Valley",
    "visitors":"2,423,390",
    "world_heritage_site":false
  },
  {
    "area":{
      "acres":"3,373,063.14",
      "square_km":"13,650.3"
    },
    "coordinates":{
      "latitude":36.24,
      "longitude":-116.82
    },
    "date_established_readable":"October 31, 1994",
    "date_established_unix":783583200,
    "states":[
      "California",
      "Nevada"
    ],
    "title":"Death Valley",
    "visitors":"1,296,283",
    "world_heritage_site":false
  },
  {
    "area":{
      "acres":"4,740,911.16",
      "square_km":"19,185.8"
    },
    "coordinates":{
      "latitude":63.33,
      "longitude":-150.5
    },
    "date_established_readable":"February 26, 1917",
    "date_established_unix":-1667671200,
    "states":[
      "Alaska"
    ],
    "title":"Denali",
    "visitors":"587,412",
    "world_heritage_site":false
  },
  {
    "area":{
      "acres":"64,701.22",
      "square_km":"261.8"
    },
    "coordinates":{
      "latitude":24.63,
      "longitude":-82.87
    },
    "date_established_readable":"October 26, 1992",
    "date_established_unix":720079200,
    "states":[
      "Florida"
    ],
    "title":"Dry Tortugas",
    "visitors":"73,661",
    "world_heritage_site":false
  },
  {
    "area":{
      "acres":"1,508,968.1",
      "square_km":"6,106.6"
    },
    "coordinates":{
      "latitude":25.32,
      "longitude":-80.93
    },
    "date_established_readable":"May 30, 1934",
    "date_established_unix":-1123182000,
    "states":[
      "Florida"
    ],
    "title":"Everglades",
    "visitors":"930,907",
    "world_heritage_site":true
  },
  {
    "area":{
      "acres":"7,523,897.45",
      "square_km":"30,448.1"
    },
    "coordinates":{
      "latitude":67.78,
      "longitude":-153.3
    },
    "date_established_readable":"December 2, 1980",
    "date_established_unix":344584800,
    "states":[
      "Alaska"
    ],
    "title":"Gates of the Arctic",
    "visitors":"10,047",
    "world_heritage_site":false
  },
  {
    "area":{
      "acres":"1,013,128.94",
      "square_km":"4,100.0"
    },
    "coordinates":{
      "latitude":48.8,
      "longitude":-114
    },
    "date_established_readable":"May 11, 1910",
    "date_established_unix":-1882206000,
    "states":[
      "Montana"
    ],
    "title":"Glacier",
    "visitors":"2,946,681",
    "world_heritage_site":true
  },
  {
    "area":{
      "acres":"3,223,383.43",
      "square_km":"13,044.6"
    },
    "coordinates":{
      "latitude":58.5,
      "longitude":-137
    },
    "date_established_readable":"December 2, 1980",
    "date_established_unix":344584800,
    "states":[
      "Alaska"
    ],
    "title":"Glacier Bay",
    "visitors":"520,171",
    "world_heritage_site":true
  },
  {
    "area":{
      "acres":"1,201,647.03",
      "square_km":"4,862.9"
    },
    "coordinates":{
      "latitude":36.06,
      "longitude":-112.14
    },
    "date_established_readable":"February 26, 1919",
    "date_established_unix":-1604599200,
    "states":[
      "Arizona"
    ],
    "title":"Grand Canyon",
    "visitors":"5,969,811",
    "world_heritage_site":true
  },
  {
    "area":{
      "acres":"310,043.96",
      "square_km":"1,254.7"
    },
    "coordinates":{
      "latitude":43.73,
      "longitude":-110.8
    },
    "date_established_readable":"February 26, 1929",
    "date_established_unix":-1288980000,
    "states":[
      "Wyoming"
    ],
    "title":"Grand Teton",
    "visitors":"3,270,076",
    "world_heritage_site":false
  },
  {
    "area":{
      "acres":"77,180.00",
      "square_km":"312.3"
    },
    "coordinates":{
      "latitude":38.98,
      "longitude":-114.3
    },
    "date_established_readable":"October 27, 1986",
    "date_established_unix":530776800,
    "states":[
      "Nevada"
    ],
    "title":"Great Basin",
    "visitors":"144,846",
    "world_heritage_site":false
  },
  {
    "area":{
      "acres":"107,341.87",
      "square_km":"434.4"
    },
    "coordinates":{
      "latitude":37.73,
      "longitude":-105.51
    },
    "date_established_readable":"September 13, 2004",
    "date_established_unix":1095051600,
    "states":[
      "Colorado"
    ],
    "title":"Great Sand Dunes",
    "visitors":"388,308",
    "world_heritage_site":false
  },
  {
    "area":{
      "acres":"522,426.88",
      "square_km":"2,114.2"
    },
    "coordinates":{
      "latitude":35.68,
      "longitude":-83.53
    },
    "date_established_readable":"June 15, 1934",
    "date_established_unix":-1121799600,
    "states":[
      "Tennessee",
      "North Carolina"
    ],
    "title":"Great Smoky Mountains",
    "visitors":"11,312,786",
    "world_heritage_site":true
  },
  {
    "area":{
      "acres":"86,367.10",
      "square_km":"349.5"
    },
    "coordinates":{
      "latitude":31.92,
      "longitude":-104.87
    },
    "date_established_readable":"October 15, 1966",
    "date_established_unix":-101415600,
    "states":[
      "Texas"
    ],
    "title":"Guadalupe Mountains",
    "visitors":"181,839",
    "world_heritage_site":false
  },
  {
    "area":{
      "acres":"33,264.62",
      "square_km":"134.6"
    },
    "coordinates":{
      "latitude":20.72,
      "longitude":-156.17
    },
    "date_established_readable":"August 1, 1916",
    "date_established_unix":-1685732400,
    "states":[
      "Hawaii"
    ],
    "title":"Haleakalā",
    "visitors":"1,263,558",
    "world_heritage_site":false
  },
  {
    "area":{
      "acres":"323,431.38",
      "square_km":"1,308.9"
    },
    "coordinates":{
      "latitude":19.38,
      "longitude":-155.2
    },
    "date_established_readable":"August 1, 1916",
    "date_established_unix":-1685732400,
    "states":[
      "Hawaii"
    ],
    "title":"Hawaiʻi Volcanoes",
    "visitors":"1,887,580",
    "world_heritage_site":true
  },
  {
    "area":{
      "acres":"5,549.10",
      "square_km":"22.5"
    },
    "coordinates":{
      "latitude":34.51,
      "longitude":-93.05
    },
    "date_established_readable":"March 4, 1921",
    "date_established_unix":-1540922400,
    "states":[
      "Arkansas"
    ],
    "title":"Hot Springs",
    "visitors":"1,544,300",
    "world_heritage_site":false
  },
  {
    "area":{
      "acres":"571,790.11",
      "square_km":"2,314.0"
    },
    "coordinates":{
      "latitude":48.1,
      "longitude":-88.55
    },
    "date_established_readable":"April 3, 1940",
    "date_established_unix":-938718000,
    "states":[
      "Michigan"
    ],
    "title":"Isle Royale",
    "visitors":"24,966",
    "world_heritage_site":false
  },
  {
    "area":{
      "acres":"790,635.74",
      "square_km":"3,199.6"
    },
    "coordinates":{
      "latitude":33.79,
      "longitude":-115.9
    },
    "date_established_readable":"October 31, 1994",
    "date_established_unix":783583200,
    "states":[
      "California"
    ],
    "title":"Joshua Tree",
    "visitors":"2,505,286",
    "world_heritage_site":false
  },
  {
    "area":{
      "acres":"3,674,529.33",
      "square_km":"14,870.3"
    },
    "coordinates":{
      "latitude":58.5,
      "longitude":-155
    },
    "date_established_readable":"December 2, 1980",
    "date_established_unix":344584800,
    "states":[
      "Alaska"
    ],
    "title":"Katmai",
    "visitors":"37,818",
    "world_heritage_site":false
  },
  {
    "area":{
      "acres":"669,983.65",
      "square_km":"2,711.3"
    },
    "coordinates":{
      "latitude":59.92,
      "longitude":-149.65
    },
    "date_established_readable":"December 2, 1980",
    "date_established_unix":344584800,
    "states":[
      "Alaska"
    ],
    "title":"Kenai Fjords",
    "visitors":"346,534",
    "world_heritage_site":false
  },
  {
    "area":{
      "acres":"461,901.20",
      "square_km":"1,869.2"
    },
    "coordinates":{
      "latitude":36.8,
      "longitude":-118.55
    },
    "date_established_readable":"March 4, 1940",
    "date_established_unix":-941306400,
    "states":[
      "California"
    ],
    "title":"Kings Canyon",
    "visitors":"607,479",
    "world_heritage_site":false
  },
  {
    "area":{
      "acres":"1,750,716.16",
      "square_km":"7,084.9"
    },
    "coordinates":{
      "latitude":67.55,
      "longitude":-159.28
    },
    "date_established_readable":"December 2, 1980",
    "date_established_unix":344584800,
    "states":[
      "Alaska"
    ],
    "title":"Kobuk Valley",
    "visitors":"15,500",
    "world_heritage_site":false
  },
  {
    "area":{
      "acres":"2,619,816.49",
      "square_km":"10,602.0"
    },
    "coordinates":{
      "latitude":60.97,
      "longitude":-153.42
    },
    "date_established_readable":"December 2, 1980",
    "date_established_unix":344584800,
    "states":[
      "Alaska"
    ],
    "title":"Lake Clark",
    "visitors":"21,102",
    "world_heritage_site":false
  },
  {
    "area":{
      "acres":"106,589.02",
      "square_km":"431.4"
    },
    "coordinates":{
      "latitude":40.49,
      "longitude":-121.51
    },
    "date_established_readable":"August 9, 1916",
    "date_established_unix":-1685041200,
    "states":[
      "California"
    ],
    "title":"Lassen Volcanic",
    "visitors":"536,068",
    "world_heritage_site":false
  },
  {
    "area":{
      "acres":"52,830.19",
      "square_km":"213.8"
    },
    "coordinates":{
      "latitude":37.18,
      "longitude":-86.1
    },
    "date_established_readable":"July 1, 1941",
    "date_established_unix":-899492400,
    "states":[
      "Kentucky"
    ],
    "title":"Mammoth Cave",
    "visitors":"586,514",
    "world_heritage_site":true
  },
  {
    "area":{
      "acres":"52,485.17",
      "square_km":"212.4"
    },
    "coordinates":{
      "latitude":37.18,
      "longitude":-108.49
    },
    "date_established_readable":"June 29, 1906",
    "date_established_unix":-2004202800,
    "states":[
      "Colorado"
    ],
    "title":"Mesa Verde",
    "visitors":"583,527",
    "world_heritage_site":true
  },
  {
    "area":{
      "acres":"236,381.64",
      "square_km":"956.6"
    },
    "coordinates":{
      "latitude":46.85,
      "longitude":-121.75
    },
    "date_established_readable":"March 2, 1899",
    "date_established_unix":-2235319200,
    "states":[
      "Washington "
    ],
    "title":"Mount Rainier",
    "visitors":"1,356,913",
    "world_heritage_site":false
  },
  {
    "area":{
      "acres":"504,780.94",
      "square_km":"2,042.8"
    },
    "coordinates":{
      "latitude":48.7,
      "longitude":-121.2
    },
    "date_established_readable":"October 2, 1968",
    "date_established_unix":-39380400,
    "states":[
      "Washington "
    ],
    "title":"North Cascades",
    "visitors":"28,646",
    "world_heritage_site":false
  },
  {
    "area":{
      "acres":"922,650.10",
      "square_km":"3,733.8"
    },
    "coordinates":{
      "latitude":47.97,
      "longitude":-123.5
    },
    "date_established_readable":"June 29, 1938",
    "date_established_unix":-994359600,
    "states":[
      "Washington "
    ],
    "title":"Olympic",
    "visitors":"3,390,221",
    "world_heritage_site":true
  },
  {
    "area":{
      "acres":"221,415.77",
      "square_km":"896.0"
    },
    "coordinates":{
      "latitude":35.07,
      "longitude":-109.78
    },
    "date_established_readable":"December 9, 1962",
    "date_established_unix":-222890400,
    "states":[
      "Arizona"
    ],
    "title":"Petrified Forest",
    "visitors":"643,274",
    "world_heritage_site":false
  },
  {
    "area":{
      "acres":"26,685.73",
      "square_km":"108.0"
    },
    "coordinates":{
      "latitude":36.48,
      "longitude":-121.16
    },
    "date_established_readable":"January 10, 2013",
    "date_established_unix":1357797600,
    "states":[
      "California"
    ],
    "title":"Pinnacles",
    "visitors":"215,555",
    "world_heritage_site":false
  },
  {
    "area":{
      "acres":"138,999.37",
      "square_km":"562.5"
    },
    "coordinates":{
      "latitude":41.3,
      "longitude":-124
    },
    "date_established_readable":"October 2, 1968",
    "date_established_unix":-39380400,
    "states":[
      "California"
    ],
    "title":"Redwood",
    "visitors":"536,297",
    "world_heritage_site":true
  },
  {
    "area":{
      "acres":"265,795.20",
      "square_km":"1,075.6"
    },
    "coordinates":{
      "latitude":40.4,
      "longitude":-105.58
    },
    "date_established_readable":"January 26, 1915",
    "date_established_unix":-1733508000,
    "states":[
      "Colorado"
    ],
    "title":"Rocky Mountain",
    "visitors":"4,517,585",
    "world_heritage_site":false
  },
  {
    "area":{
      "acres":"91,715.72",
      "square_km":"371.2"
    },
    "coordinates":{
      "latitude":32.25,
      "longitude":-110.5
    },
    "date_established_readable":"October 14, 1994",
    "date_established_unix":782110800,
    "states":[
      "Arizona"
    ],
    "title":"Saguaro",
    "visitors":"820,426",
    "world_heritage_site":false
  },
  {
    "area":{
      "acres":"404,062.63",
      "square_km":"1,635.2"
    },
    "coordinates":{
      "latitude":36.43,
      "longitude":-118.68
    },
    "date_established_readable":"September 25, 1890",
    "date_established_unix":-2501434800,
    "states":[
      "California"
    ],
    "title":"Sequoia",
    "visitors":"1,254,688",
    "world_heritage_site":false
  },
  {
    "area":{
      "acres":"199,195.27",
      "square_km":"806.1"
    },
    "coordinates":{
      "latitude":38.53,
      "longitude":-78.35
    },
    "date_established_readable":"December 26, 1935",
    "date_established_unix":-1073498400,
    "states":[
      "Virginia"
    ],
    "title":"Shenandoah",
    "visitors":"1,437,341",
    "world_heritage_site":false
  },
  {
    "area":{
      "acres":"70,446.89",
      "square_km":"285.1"
    },
    "coordinates":{
      "latitude":46.97,
      "longitude":-103.45
    },
    "date_established_readable":"November 10, 1978",
    "date_established_unix":279525600,
    "states":[
      "North Dakota"
    ],
    "title":"Theodore Roosevelt",
    "visitors":"753,880",
    "world_heritage_site":false
  },
  {
    "area":{
      "acres":"14,948.46",
      "square_km":"60.5"
    },
    "coordinates":{
      "latitude":18.33,
      "longitude":-64.73
    },
    "date_established_readable":"August 2, 1956",
    "date_established_unix":-423342000,
    "states":[
      "United States Virgin Islands"
    ],
    "title":"Virgin Islands",
    "visitors":"411,343",
    "world_heritage_site":false
  },
  {
    "area":{
      "acres":"218,200.15",
      "square_km":"883.0"
    },
    "coordinates":{
      "latitude":48.5,
      "longitude":-92.88
    },
    "date_established_readable":"January 8, 1971",
    "date_established_unix":32162400,
    "states":[
      "Minnesota"
    ],
    "title":"Voyageurs",
    "visitors":"241,912",
    "world_heritage_site":false
  },
  {
    "area":{
      "acres":"33,970.84",
      "square_km":"137.5"
    },
    "coordinates":{
      "latitude":43.57,
      "longitude":-103.48
    },
    "date_established_readable":"January 9, 1903",
    "date_established_unix":-2113668000,
    "states":[
      "South Dakota"
    ],
    "title":"Wind Cave",
    "visitors":"617,377",
    "world_heritage_site":false
  },
  {
    "area":{

    },
    "coordinates":{

    },
    "date_established_readable":"December 2, 1980",
    "date_established_unix":344584800,
    "states":[

    ],
    "title":"Wrangell–St. Elias",
    "visitors":"79,047",
    "world_heritage_site":true
  },
  {
    "area":{
      "acres":"2,219,790.71",
      "square_km":"8,983.2"
    },
    "coordinates":{
      "latitude":44.6,
      "longitude":-110.5
    },
    "date_established_readable":"March 1, 1872",
    "date_established_unix":-3087396000,
    "states":[
      "Wyoming",
      "Montana",
      "Idaho"
    ],
    "title":"Yellowstone",
    "visitors":"4,257,177",
    "world_heritage_site":true
  },
  {
    "area":{
      "acres":"761,747.50",
      "square_km":"3,082.7"
    },
    "coordinates":{
      "latitude":37.83,
      "longitude":-119.5
    },
    "date_established_readable":"October 1, 1890",
    "date_established_unix":-2500916400,
    "states":[
      "California"
    ],
    "title":"Yosemite",
    "visitors":"5,028,868",
    "world_heritage_site":true
  },
  {
    "area":{
      "acres":"147,237.02",
      "square_km":"595.8"
    },
    "coordinates":{
      "latitude":37.3,
      "longitude":-113.05
    },
    "date_established_readable":"November 19, 1919",
    "date_established_unix":-1581616800,
    "states":[
      "Utah"
    ],
    "title":"Zion",
    "visitors":"4,295,127",
    "world_heritage_site":false
  }
]
